City,Lat,Lng,Max Temp,Humidity,Cloudiness,Wind Speed,Country,Date
Port Elizabeth,-33.918,25.5701,23.0,83,75,8.23,ZA,1612366424
Bāglung,28.2719,83.5898,9.86,49,16,2.33,NP,1612366323
Tasiilaq,65.6145,-37.6368,-2.36,97,100,9.48,GL,1612366424
Vaini,-21.2,-175.2,25.0,94,75,2.74,TO,1612366425
Pevek,69.7008,170.3133,-22.17,76,58,3.61,RU,1612366425
Hong Kong,22.2855,114.1577,18.33,82,0,0.45,HK,1612366364
Clyde River,70.4692,-68.5914,-31.0,76,75,1.54,CA,1612366425
Ushuaia,-54.8,-68.3,12.0,50,40,11.83,AR,1612366365
Bermeo,43.4209,-2.7215,20.0,45,20,1.03,ES,1612366425
Lubao,14.9167,120.55,25.0,83,40,2.06,PH,1612366425
Upernavik,72.7868,-56.1549,-25.15,78,9,1.64,GL,1612366425
Kapaa,22.0752,-159.319,20.0,88,90,7.2,US,1612366425
Albany,42.6001,-73.9662,-0.56,72,100,2.68,US,1612366207
Coahuayana Viejo,18.7333,-103.6833,23.0,56,40,0.98,MX,1612366426
Rikitea,-23.1203,-134.9692,25.41,71,48,5.15,PF,1612366426
Kalabo,-14.97,22.6814,23.56,80,58,4.21,ZM,1612366426
Tucumcari,35.1717,-103.725,12.0,54,1,9.49,US,1612366388
Tuktoyaktuk,69.4541,-133.0374,-42.0,66,1,1.54,CA,1612366426
Tomatlán,19.9333,-105.25,27.08,54,27,1.06,MX,1612366426
Laguna,38.421,-121.4238,4.44,93,1,1.42,US,1612366426
Ostrovnoy,68.0531,39.5131,-7.5,94,100,4.14,RU,1612366426
Thompson,55.7435,-97.8558,-13.0,92,90,6.17,CA,1612366427
Butaritari,3.0707,172.7902,27.53,83,23,8.41,KI,1612366427
Bredasdorp,-34.5322,20.0403,23.0,53,0,4.12,ZA,1612366427
Salinas,36.6777,-121.6555,6.11,93,1,1.54,US,1612366427
Mataura,-46.1927,168.8643,6.42,92,35,0.93,NZ,1612366427
Katsuura,35.1333,140.3,7.0,45,20,4.63,JP,1612366427
Punta Arenas,-53.15,-70.9167,15.0,58,75,8.23,CL,1612366333
Paamiut,61.994,-49.6678,-13.08,78,14,4.05,GL,1612366427
Ribeira Grande,38.5167,-28.7,13.0,71,40,10.8,PT,1612366427
Meulaboh,4.1363,96.1285,26.05,83,99,1.08,ID,1612366428
Wilmington,34.2257,-77.9447,5.56,41,1,6.69,US,1612366214
Atuona,-9.8,-139.0333,25.21,76,6,5.96,PF,1612366428
Husavik,66.0449,-17.3389,-7.0,73,0,5.99,IS,1612366428
Qaanaaq,77.484,-69.3632,-28.39,68,23,1.84,GL,1612366428
Alofi,-19.0595,-169.9187,25.0,100,100,2.06,NU,1612366428
Ushtobe,45.2514,77.9838,-2.48,96,96,0.59,KZ,1612366428
Mokrous,51.2333,47.5167,1.24,100,100,3.62,RU,1612366428
Hervey Bay,-25.2986,152.8535,23.33,85,21,0.45,AU,1612366429
Pochutla,15.7432,-96.4661,27.22,65,1,1.27,MX,1612366429
Puerto Ayora,-0.7393,-90.3518,28.0,69,75,4.12,EC,1612366429
Puerto Ayacucho,5.6639,-67.6236,33.16,53,51,0.33,VE,1612366429
Northam,51.0333,-4.2167,10.0,84,76,4.47,GB,1612366429
Nānākuli,21.3906,-158.1547,22.0,78,75,10.29,US,1612366429
Provideniya,64.3833,-173.3,-19.25,85,100,7.84,RU,1612366429
Altay,47.8667,88.1167,-10.45,86,84,0.49,CN,1612366429
Saint Paul Harbor,57.79,-152.4072,0.0,80,75,1.54,US,1612366429
Doka,13.5167,35.7667,32.15,13,0,3.13,SD,1612366430
Gumdag,39.2061,54.5906,11.31,47,77,2.36,TM,1612366430
Lebu,-37.6167,-73.65,18.3,65,0,6.32,CL,1612366430
Ancud,-41.8697,-73.8203,20.0,64,0,2.57,CL,1612366430
Kruisfontein,-34.0033,24.7314,26.67,66,0,2.68,ZA,1612366430
Mehamn,71.0357,27.8492,-1.0,69,75,10.8,NO,1612366431
Longyearbyen,78.2186,15.6401,-3.0,68,75,5.14,SJ,1612366431
Fortuna,40.5982,-124.1573,9.44,100,90,5.14,US,1612366431
Zyryanka,65.75,150.85,-29.06,87,99,4.44,RU,1612366431
Karratha,-20.7377,116.8463,27.55,82,65,7.1,AU,1612366431
Severo-Kuril'sk,50.6789,156.125,-11.84,93,100,16.41,RU,1612366431
Ampanihy,-24.7,44.75,29.72,52,39,5.97,MG,1612366432
Hobart,-42.8794,147.3294,15.0,94,90,2.57,AU,1612366205
Singapore,1.2897,103.8501,26.0,78,75,3.6,SG,1612366270
Kumul,42.8,93.45,-2.78,80,73,0.25,CN,1612366432
Nantucket,41.2835,-70.0995,1.11,86,90,4.63,US,1612366231
Puerto Peñasco,31.3167,-113.5333,13.0,88,75,2.49,MX,1612366409
Poronaysk,49.2167,143.1167,-32.53,81,25,1.32,RU,1612366433
Mar del Plata,-38.0023,-57.5575,22.0,68,75,6.17,AR,1612366153
Pangnirtung,66.1451,-65.7125,-27.0,63,1,1.03,CA,1612366433
Tambun,-6.2641,107.0712,25.56,88,40,2.06,ID,1612366433
Vila Velha,-20.3297,-40.2925,31.67,62,40,7.2,BR,1612366433
Pacific Grove,36.6177,-121.9166,6.11,93,1,2.06,US,1612366213
Busselton,-33.65,115.3333,14.44,67,0,0.45,AU,1612366433
Saint-Philippe,-21.3585,55.7679,29.0,65,0,7.72,RE,1612366433
Basco,20.4487,121.9702,22.31,80,41,11.96,PH,1612366434
Khatanga,71.9667,102.5,-21.6,91,100,3.06,RU,1612366434
Hermanus,-34.4187,19.2345,24.44,56,0,2.24,ZA,1612366434
Sirte,31.2089,16.5887,16.62,74,0,5.23,LY,1612366434
San Patricio,28.017,-97.5169,20.0,77,20,3.6,US,1612366434
Novosheshminsk,55.0651,51.2338,-9.29,93,90,3.21,RU,1612366434
Suntar,62.1444,117.6319,-29.82,85,100,2.62,RU,1612366435
Carnarvon,-24.8667,113.6333,24.0,100,90,11.32,AU,1612366435
Kentau,43.5206,68.5094,3.45,63,32,1.38,KZ,1612366435
Hasaki,35.7333,140.8333,1.0,69,75,3.09,JP,1612366435
Dikson,73.5069,80.5464,-21.12,90,100,6.77,RU,1612366435
Chokwé,-24.5333,32.9833,25.59,84,59,1.98,MZ,1612366435
Baykit,61.67,96.37,-23.74,86,100,0.14,RU,1612366435
Sitka,57.0531,-135.33,2.0,80,90,4.12,US,1612366435
Petatlán,17.5167,-101.2667,24.0,83,20,1.36,MX,1612366228
Nanga Eboko,4.6833,12.3667,34.88,23,22,0.89,CM,1612366436
Lorengau,-2.0226,147.2712,26.84,77,100,1.45,PG,1612366436
Tilichiki,60.4667,166.1,-5.29,93,93,15.49,RU,1612366436
Inírida,3.8653,-67.9239,29.5,78,83,0.96,CO,1612366436
Jamestown,42.097,-79.2353,-3.89,68,1,6.17,US,1612366404
Ponta do Sol,32.6667,-17.1,19.0,63,40,3.09,PT,1612366437
Kaitangata,-46.2817,169.8464,11.11,71,86,2.24,NZ,1612366437
Vanimo,-2.6741,141.3028,25.78,87,100,2.89,PG,1612366437
Comodoro Rivadavia,-45.8667,-67.5,28.0,36,0,4.12,AR,1612366437
Nanortalik,60.1432,-45.2371,-7.3,82,0,7.64,GL,1612366437
Tuatapere,-46.1333,167.6833,9.27,88,66,1.95,NZ,1612366437
Cabo San Lucas,22.8909,-109.9124,19.0,48,40,0.98,MX,1612366293
Isangel,-19.55,169.2667,28.0,78,75,4.12,VU,1612366437
Saint Anthony,45.0205,-93.218,-5.0,73,1,5.66,US,1612366178
Bambous Virieux,-20.3428,57.7575,27.0,78,40,7.72,MU,1612366438
Acajutla,13.5928,-89.8275,28.4,33,22,1.98,SV,1612366426
Nha Trang,12.25,109.1833,24.0,69,20,6.17,VN,1612366321
Vardø,70.3705,31.1107,-2.0,80,75,10.8,NO,1612366438
Buin,-33.7333,-70.75,28.33,43,0,1.54,CL,1612366438
Bara,10.3744,10.7288,33.0,17,0,5.66,NG,1612366438
Mabaruma,8.2,-59.7833,27.23,85,17,2.29,GY,1612366438
Sola,-13.8833,167.55,25.0,94,40,5.32,VU,1612366438
Dunedin,-45.8742,170.5036,11.67,71,60,0.89,NZ,1612366432
Bengkulu,-3.8004,102.2655,24.42,87,100,2.26,ID,1612366439
Tari,12.4086,4.4914,35.9,9,0,5.29,NG,1612366439
Vila Franca do Campo,37.7167,-25.4333,14.0,62,20,9.26,PT,1612366439
Cape Town,-33.9258,18.4232,24.44,57,0,8.23,ZA,1612366147
Torbay,47.6666,-52.7314,1.67,100,90,13.89,CA,1612366439
Saint George,37.1041,-113.5841,5.0,93,1,1.45,US,1612366439
Leshukonskoye,64.8989,45.7622,-16.47,94,100,1.35,RU,1612366439
Kikwit,-5.041,18.8162,29.34,64,80,0.85,CD,1612366439
Waitati,-45.75,170.5667,11.67,74,81,4.92,NZ,1612366440
Ilovlya,49.3033,43.9796,5.0,100,90,2.0,RU,1612366440
Nouakchott,18.0858,-15.9785,35.0,5,0,2.06,MR,1612366440
Nikolskoye,59.7035,30.7861,-3.89,93,90,1.0,RU,1612366440
Cherskiy,68.75,161.3,-13.6,86,75,3.32,RU,1612366440
Richards Bay,-28.783,32.0377,25.3,85,95,4.03,ZA,1612366440
Bluff,-46.6,168.3333,11.04,80,71,5.05,NZ,1612366440
Kirakira,-10.4544,161.9205,25.92,89,100,6.32,SB,1612366440
Dondo,-19.6094,34.7431,31.0,74,40,5.66,MZ,1612366440
Oussouye,12.485,-16.5469,35.0,61,0,3.09,SN,1612366441
Kavieng,-2.5744,150.7967,28.51,69,94,2.99,PG,1612366441
Sept-Îles,50.2001,-66.3821,-1.67,93,100,7.2,CA,1612366431
Mashhad,36.297,59.6062,8.0,46,0,3.09,IR,1612366441
Los Llanos de Aridane,28.6585,-17.9182,19.0,68,75,2.06,ES,1612366441
Marystown,47.1666,-55.1483,4.55,97,100,11.68,CA,1612366246
Faya,18.3851,42.4509,19.0,67,20,6.17,SA,1612366441
Avarua,-21.2078,-159.775,27.0,78,40,3.09,CK,1612366211
Cayenne,4.9333,-52.3333,29.0,79,75,7.72,GF,1612366441
Lavrentiya,65.5833,-171.0,-23.54,83,57,6.81,RU,1612366442
Aguaí,-22.0594,-46.9786,31.0,51,40,2.57,BR,1612366442
Cidreira,-30.1811,-50.2056,28.76,71,94,4.36,BR,1612366442
East London,-33.0153,27.9116,29.0,39,20,3.6,ZA,1612366442
Bathsheba,13.2167,-59.5167,28.0,69,75,10.8,BB,1612366442
Rāzole,16.4833,81.8333,24.0,73,0,1.03,IN,1612366442
Honningsvåg,70.9821,25.9704,-1.0,64,75,13.38,NO,1612366442
Champerico,14.3,-91.9167,27.0,69,0,2.63,GT,1612366442
Castro,-24.7911,-50.0119,27.92,63,27,1.42,BR,1612366443
Katherine,-14.4667,132.2667,28.0,78,40,4.12,AU,1612366443
Mahébourg,-20.4081,57.7,27.0,78,40,7.72,MU,1612366443
Evensk,61.95,159.2333,-10.05,92,100,19.71,RU,1612366443
Deyskoye,43.4755,44.1618,11.67,53,78,0.79,RU,1612366443
Fort Nelson,58.8053,-122.7002,-26.0,76,75,0.41,CA,1612366443
Ucluelet,48.9329,-125.5528,1.0,93,1,1.03,CA,1612366328
Kasempa,-13.4584,25.8338,21.46,89,58,2.29,ZM,1612366444
Laas,46.6166,10.7002,4.44,100,90,4.12,IT,1612366444
Smiltene,57.4244,25.9016,-3.33,88,77,0.89,LV,1612366444
Luganville,-15.5333,167.1667,25.53,82,27,2.13,VU,1612366444
Port Alfred,-33.5906,26.891,25.0,84,0,0.89,ZA,1612366444
Omboué,-1.5746,9.2618,27.33,82,99,3.72,GA,1612366444
Chiredzi,-21.05,31.6667,26.77,74,73,2.26,ZW,1612366444
Nodeland,58.1552,7.8358,-3.33,63,40,10.8,NO,1612366444
Khovd,48.0056,91.6419,-10.73,85,96,0.44,MN,1612366444
Hilo,19.7297,-155.09,19.0,77,1,2.57,US,1612366445
Belfast,54.5833,-5.9333,6.0,100,90,0.51,GB,1612366445
Kamennomostskiy,44.2983,40.1856,10.63,58,81,1.14,RU,1612366445
Narsaq,60.9167,-46.05,-9.0,48,40,4.63,GL,1612366445
Saint-François,46.4154,3.9054,13.33,58,0,6.17,FR,1612366445
At-Bashi,41.1702,75.8106,-12.27,69,0,1.05,KG,1612366445
Jalālī,27.8667,78.2667,17.79,48,25,3.78,IN,1612366445
Departamento de Maldonado,-34.6667,-54.9167,23.89,83,90,6.17,UY,1612366446
Kangalassy,62.3464,129.9628,-41.0,66,100,2.0,RU,1612366446
Fairbanks,64.8378,-147.7164,-28.0,69,1,2.06,US,1612366446
Geraldton,-28.7667,114.6,25.0,69,0,6.69,AU,1612366256
Alice Springs,-23.7,133.8833,23.0,25,56,2.06,AU,1612366446
Lluta,-16.0147,-72.0142,20.0,40,75,2.57,PE,1612366446
Taltal,-25.4,-70.4833,21.62,59,30,3.64,CL,1612366446
Honggang,46.4667,124.8667,-25.32,83,0,3.61,CN,1612366446
Concepción del Oro,24.6333,-101.4167,16.43,30,82,0.5,MX,1612366446
Gaya,24.7833,85.0,14.0,77,75,0.23,IN,1612366446
Ewo,-0.8725,14.8206,32.86,47,68,1.32,CG,1612366447
Byron Bay,-28.65,153.6167,19.0,94,9,2.06,AU,1612366447
Davila,18.4726,120.5763,21.0,83,20,2.06,PH,1612366447
São João da Barra,-21.6403,-41.0511,31.0,48,0,9.26,BR,1612366273
Yellowknife,62.456,-114.3525,-26.67,69,90,2.57,CA,1612366205
Luoyang,34.6836,112.4536,7.78,99,8,1.4,CN,1612366447
Half Moon Bay,37.4636,-122.4286,8.89,100,1,0.92,US,1612366447
Cocorit,27.5833,-109.9667,12.0,71,75,1.03,MX,1612366447
Entre Rios,-11.9419,-38.0844,31.91,46,87,3.34,BR,1612366241
New Norfolk,-42.7826,147.0587,15.0,68,95,0.73,AU,1612366447
Farmington,36.7281,-108.2187,3.89,87,1,3.6,US,1612366354
Mayo,38.8876,-76.5119,3.0,60,40,6.69,US,1612366448
Lagoa,39.05,-27.9833,12.38,68,78,12.7,PT,1612366448
Bintulu,3.1667,113.0333,26.0,94,40,2.06,MY,1612366448
Tocopilla,-22.092,-70.1979,23.94,50,88,4.42,CL,1612366448
Aimorés,-19.4958,-41.0639,28.33,53,52,2.13,BR,1612366448
Ipanguaçu,-5.4983,-36.855,37.0,30,40,5.14,BR,1612366448
Puerto Escondido,15.85,-97.0667,25.0,88,1,2.57,MX,1612366448
Faanui,-16.4833,-151.75,27.05,77,16,5.87,PF,1612366448
Vallenar,-28.5708,-70.7581,30.05,22,0,3.18,CL,1612366448
Praia da Vitória,38.7333,-27.0667,14.0,62,40,11.44,PT,1612366448
Kaitong,44.8135,123.15,-22.5,82,0,4.54,CN,1612366449
Nhulunbuy,-12.2333,136.7667,27.0,89,40,5.66,AU,1612366449
College,64.8569,-147.8028,-28.0,68,1,2.57,US,1612366180
Rock Springs,41.5875,-109.2029,-2.0,74,1,4.63,US,1612366449
Aripuanã,-9.1667,-60.6333,32.49,59,72,0.73,BR,1612366449
Okha,53.5739,142.9478,-32.29,80,1,7.11,RU,1612366449
Caravelas,-17.7125,-39.2481,29.9,59,100,4.53,BR,1612366449
Petawawa,45.9001,-77.3328,-5.56,58,1,3.6,CA,1612366449
Dawlatabad,36.4141,64.9053,8.74,59,0,2.74,AF,1612366449
Chui,-33.6971,-53.4616,22.13,95,100,4.28,UY,1612366449
Asău,46.4333,26.4,5.56,100,90,5.66,RO,1612366449
Tiksi,71.6872,128.8694,-33.06,85,47,1.59,RU,1612366450
Cape Coast,5.1053,-1.2466,29.08,69,10,5.51,GH,1612366450
Norman Wells,65.282,-126.8329,-36.0,75,75,2.06,CA,1612366450
Chokurdakh,70.6333,147.9167,-18.07,93,100,3.61,RU,1612366450
Grindavik,63.8424,-22.4338,3.0,70,75,12.86,IS,1612366450
Linköping,58.4109,15.6216,-9.0,86,20,2.06,SE,1612366450
Saskylakh,71.9167,114.0833,-21.65,89,100,6.01,RU,1612366450
North Bend,43.4065,-124.2243,6.0,75,75,3.09,US,1612366450
Cam Ranh,11.9214,109.1591,24.0,69,20,6.17,VN,1612366450
Iquitos,-3.7481,-73.2472,30.0,70,40,2.57,PE,1612366451
Trairi,-3.2778,-39.2689,31.05,58,48,7.59,BR,1612366451
Airai,-8.9266,125.4092,16.07,100,100,1.77,TL,1612366451
Kalmunai,7.4167,81.8167,24.82,82,96,5.46,LK,1612366451
Banda Aceh,5.5577,95.3222,26.08,82,39,5.54,ID,1612366451
Talnakh,69.4865,88.3972,-29.36,86,100,1.4,RU,1612366451
Avera,33.194,-82.5271,5.0,48,1,4.63,US,1612366451
Kahului,20.8947,-156.47,19.0,77,1,2.57,US,1612366451
Kralendijk,12.15,-68.2667,28.0,69,20,9.26,BQ,1612366451
Nyurba,63.2842,118.3319,-31.27,86,100,2.51,RU,1612366452
Bethel,41.3712,-73.414,-1.0,69,90,4.63,US,1612366452
Souillac,-20.5167,57.5167,27.0,78,40,7.72,MU,1612366452
Wāshīm,20.1,77.15,20.28,24,0,2.93,IN,1612366452
Yerbogachën,61.2767,108.0108,-27.32,88,97,1.56,RU,1612366452
Camaná,-16.6228,-72.7111,23.36,67,98,4.1,PE,1612366452
Buala,-8.145,159.5921,25.84,77,100,5.26,SB,1612366452
Shahr-e Kord,32.3256,50.8644,5.0,20,0,3.09,IR,1612366452
Visnes,59.3556,5.2242,-1.11,54,0,2.57,NO,1612366452
Arraial do Cabo,-22.9661,-42.0278,31.0,58,0,9.77,BR,1612366452
San Quintín,30.4833,-115.95,16.16,78,74,3.88,MX,1612366452
Iskateley,67.6803,53.1512,-15.69,94,87,3.44,RU,1612366453
Lázaro Cárdenas,17.9583,-102.2,27.0,64,56,0.8,MX,1612366453
Wattegama,6.7989,81.4808,25.0,94,40,5.14,LK,1612366453
Kudahuvadhoo,2.6708,72.8944,27.69,79,83,6.19,MV,1612366453
Quang Ngai,15.1167,108.8,19.37,88,44,2.26,VN,1612366453
Nicoya,10.1483,-85.452,27.0,47,0,3.09,CR,1612366453
Sørland,67.667,12.6934,-1.0,59,40,8.23,NO,1612366453
Tumaco,1.7986,-78.8156,27.12,85,18,3.1,CO,1612366453
Mishkino,55.3389,63.9175,-11.93,94,9,3.18,RU,1612366453
Zhigansk,66.7697,123.3711,-39.49,79,95,5.66,RU,1612366453
Samarai,-10.6167,150.6667,27.15,80,61,5.32,PG,1612366454
Barrow,71.2906,-156.7887,-31.0,69,1,4.63,US,1612366202
Lompoc,34.6391,-120.4579,9.0,93,1,3.95,US,1612366372
Unity,52.4501,-109.1682,-22.3,90,100,5.45,CA,1612366454
Muzhi,65.3667,64.6667,-14.68,94,100,2.25,RU,1612366454
Vanavara,60.34,102.2797,-27.55,88,99,1.09,RU,1612366454
Mount Gambier,-37.8333,140.7667,13.0,88,100,2.06,AU,1612366454
George Town,5.4112,100.3354,29.0,65,20,4.63,MY,1612366296
Acapulco de Juárez,16.8634,-99.8901,25.0,78,75,1.05,MX,1612366268
Rocha,-34.4833,-54.3333,20.9,94,100,2.89,UY,1612366454
Bo Rai,12.5728,102.5371,22.46,83,1,0.07,TH,1612366454
Ossora,59.2353,163.0719,-3.73,94,100,5.74,RU,1612366455
Přeštice,49.573,13.3335,9.44,89,90,2.57,CZ,1612366455
Halifax,44.6453,-63.5724,9.44,100,40,4.12,CA,1612366427
Guerrero Negro,27.9769,-114.0611,17.66,69,91,3.18,MX,1612366455
Baruun-Urt,46.6806,113.2792,-13.49,89,92,6.64,MN,1612366455
Saint-Augustin,51.226,-58.6502,-1.58,98,100,16.36,CA,1612366455
Ilulissat,69.2167,-51.1,-19.0,42,20,4.12,GL,1612366455
Zapolyarnyy,69.4154,30.8136,-4.0,80,75,7.2,RU,1612366455
Yemanzhelinsk,54.7547,61.3208,-8.0,86,0,3.0,RU,1612366455
Aklavik,68.2191,-135.0107,-40.0,67,20,1.54,CA,1612366455
Las Cruces,32.3123,-106.7783,12.0,40,1,2.06,US,1612366217
Saldanha,-33.0117,17.9442,26.0,38,0,9.26,ZA,1612366456
Florianópolis,-27.6146,-48.5012,32.22,66,20,5.14,BR,1612366215
Ulladulla,-35.35,150.4667,17.0,88,75,1.03,AU,1612366456
Dali,25.7,100.1833,7.73,56,0,1.99,CN,1612366456
Fare,-16.7,-151.0167,27.04,76,5,5.6,PF,1612366456
Denham Springs,30.4869,-90.9562,7.78,75,1,2.06,US,1612366456
Great Falls,47.5002,-111.3008,-3.33,68,1,6.17,US,1612366456
Okato,-39.2,173.8833,15.56,55,0,5.81,NZ,1612366456
Baie-Comeau,49.2168,-68.1489,0.0,80,90,7.2,CA,1612366456
Fagersta,60.0042,15.7932,-10.0,85,90,3.09,SE,1612366456
Tommot,58.9564,126.2925,-29.76,83,100,2.16,RU,1612366457
Pisco,-13.7,-76.2167,23.0,78,0,4.63,PE,1612366457
Vestmanna,62.1564,-7.1664,0.0,74,11,2.57,FO,1612366457
Staraya Kulatka,52.7167,47.6167,-3.6,98,100,1.59,RU,1612366457
Omsukchan,62.5333,155.8,-28.39,86,100,5.83,RU,1612366457
Zolotukhino,52.0842,36.3772,0.0,100,90,3.0,RU,1612366457
Lata,40.1629,-8.3327,17.78,67,40,7.2,PT,1612366457
Ahipara,-35.1667,173.1667,15.08,88,95,3.0,NZ,1612366457
Perth,-31.9333,115.8333,19.44,55,20,8.75,AU,1612366457
Prince Rupert,54.3161,-130.3201,4.0,86,90,1.03,CA,1612366458
Karaton,-6.3424,106.1045,25.56,88,40,2.06,ID,1612366458
Chaohu,31.6,117.8667,10.0,66,1,4.0,CN,1612366458
Teguise,29.0605,-13.564,19.0,77,20,2.57,ES,1612366458
Działdowo,53.2396,20.17,0.0,93,90,2.57,PL,1612366458
Poum,-20.2333,164.0167,25.47,81,30,10.72,NC,1612366458
Ciudad Bolivar,8.1222,-63.5497,32.97,47,7,4.83,VE,1612366458
Kununurra,-15.7667,128.7333,29.0,94,75,3.09,AU,1612366458
Coquimbo,-29.9533,-71.3436,19.0,68,0,5.66,CL,1612366206
Hamilton,39.1834,-84.5333,-1.11,69,1,3.09,US,1612366371
Morón,-34.6534,-58.6198,26.11,68,37,2.68,AR,1612366299
Merke,42.8728,73.1786,1.2,76,13,2.16,KZ,1612366459
Bonavista,48.6499,-53.1147,1.11,93,100,6.17,CA,1612366459
Hithadhoo,-0.6,73.0833,28.62,71,85,4.15,MV,1612366459
Hearst,49.6835,-83.6665,-16.0,78,16,1.03,CA,1612366459
Fukuechō,32.6881,128.8419,8.37,62,0,4.02,JP,1612366459
Kindu,-2.95,25.95,28.16,69,98,0.43,CD,1612366459
Okhotsk,59.3833,143.3,-31.53,76,58,10.31,RU,1612366459
Pangai,-19.8,-174.35,27.3,88,100,5.37,TO,1612366460
Nālūt,30.3333,10.85,19.57,30,0,2.57,LY,1612366460
Srednekolymsk,67.45,153.6833,-31.48,87,83,0.89,RU,1612366460
Marabu,4.4148,114.0089,24.0,100,40,2.97,MY,1612366460
Linjiang,41.8069,126.9078,-18.61,85,58,1.62,CN,1612366460
Phan Thiet,10.9333,108.1,22.14,77,32,4.94,VN,1612366460
Yangi Marg`ilon,40.4272,71.7189,4.0,65,0,2.06,UZ,1612366460
Kavaratti,10.5669,72.642,27.81,64,100,1.86,IN,1612366460
Port-Gentil,-0.7193,8.7815,31.0,70,40,5.66,GA,1612366460
Hambantota,6.1241,81.1185,25.0,94,40,5.14,LK,1612366461
Schiffdorf,53.5333,8.65,2.78,100,90,7.2,DE,1612366461
Bilma,18.6853,12.9164,26.13,17,0,6.92,NE,1612366461
San Felipe,10.3399,-68.7425,30.58,52,49,0.73,VE,1612366461
Agüimes,27.9054,-15.4461,21.0,64,75,5.66,ES,1612366461
Saint John,45.2727,-66.0677,3.0,100,90,2.57,CA,1612366276
Lüderitz,-26.6481,15.1594,21.18,69,0,7.75,NA,1612366461
Say,13.1007,2.3689,35.0,5,0,5.66,NE,1612366461
Bandar-e Lengeh,26.5579,54.8807,21.0,83,0,3.09,IR,1612366171
Kodino,63.7198,39.6447,-15.86,94,47,1.93,RU,1612366462
Rehoboth,-23.3167,17.0833,32.18,15,40,3.35,NA,1612366462
Port Macquarie,-31.4333,152.9167,18.89,97,34,1.45,AU,1612366437
Salalah,17.0151,54.0924,24.0,50,0,1.54,OM,1612366462
Nakło nad Notecią,53.1421,17.6018,1.0,93,90,5.14,PL,1612366462
Garissa,-0.4536,39.6401,33.26,26,49,3.32,KE,1612366462
Kiunga,-6.1219,141.2906,22.92,97,99,1.46,PG,1612366462
Klaksvík,62.2266,-6.589,0.0,74,34,2.57,FO,1612366462
Marzuq,14.4,46.4667,19.08,25,26,3.37,YE,1612366463
Kinsale,51.7075,-8.5306,9.44,81,75,7.2,IE,1612366463
Bavleny,56.4,39.56,-7.71,97,100,4.69,RU,1612366463
Yertarskiy,56.7902,64.2995,-11.35,95,0,2.7,RU,1612366463
Fomboni,-12.28,43.7425,29.51,66,100,2.64,KM,1612366463
Būlaevo,54.9056,70.4439,-11.15,95,88,3.15,KZ,1612366463
Bonthe,7.5264,-12.505,30.34,61,11,6.34,SL,1612366463
Barranca,-10.75,-77.7667,24.2,60,40,4.29,PE,1612366463
Santa Cruz de la Sierra,-17.8,-63.1667,29.0,69,75,8.75,BO,1612366463
Poltavka,54.3663,71.7632,-6.84,97,100,2.6,RU,1612366463
Zhangaözen,43.3,52.8,6.71,66,50,1.57,KZ,1612366464
Padang,-0.9492,100.3543,25.0,88,40,1.54,ID,1612366464
Namuac,18.6109,121.1657,22.65,82,75,7.0,PH,1612366464
Santiago del Estero,-27.7951,-64.2615,19.04,83,100,3.3,AR,1612366364
Aginskoye,51.1,114.53,-19.76,90,100,1.51,RU,1612366464
Great Yarmouth,52.6083,1.7305,9.0,81,75,3.6,GB,1612366464
Yar-Sale,66.8333,70.8333,-16.78,93,99,1.92,RU,1612366464
Nova Olinda do Norte,-3.8881,-59.0942,28.86,82,50,1.62,BR,1612366464
Leningradskiy,69.3833,178.4167,-29.12,85,53,6.13,RU,1612366464
La Ronge,55.1001,-105.2842,-11.0,85,99,4.12,CA,1612366464
Dębica,50.0515,21.4114,4.44,81,0,4.63,PL,1612366465
Altamont,42.2068,-121.7372,-1.67,93,90,6.17,US,1612366465
Inawashiro,37.5667,140.1167,-1.67,87,86,4.3,JP,1612366465
Bela,25.9333,81.9833,16.82,45,0,2.56,IN,1612366465
Vostok,46.4856,135.8833,-29.17,88,100,2.18,RU,1612366465
Xining,36.6167,101.7667,-3.32,61,100,0.48,CN,1612366465
Port Hedland,-20.3167,118.5667,28.0,78,51,3.6,AU,1612366465
Jardim,-21.4803,-56.1381,32.13,61,41,2.8,BR,1612366465
Sagua la Grande,22.8067,-80.0756,19.0,63,20,2.57,CU,1612366465
Zemio,5.0314,25.1361,34.65,19,49,0.66,CF,1612366465
São Filipe,14.8961,-24.4956,23.87,68,97,4.84,CV,1612366466
Juneau,58.3019,-134.4197,-7.0,86,90,2.35,US,1612366443
Harper,4.375,-7.7169,28.03,78,17,3.61,LR,1612366466
Kattivākkam,13.2167,80.3167,25.0,65,20,2.06,IN,1612366466
Rome,43.2128,-75.4557,-1.67,69,90,4.12,US,1612366205
Cruzeiro do Sul,-29.5128,-51.9853,28.69,67,88,4.56,BR,1612366466
Kulhudhuffushi,6.6221,73.07,27.9,68,7,3.27,MV,1612366466
Murgab,37.4966,61.9714,12.0,54,0,3.09,TM,1612366466
Calvinia,-31.4707,19.776,30.0,15,0,9.39,ZA,1612366466
Esperance,-33.8667,121.9,15.0,67,90,7.2,AU,1612366466
Walvis Bay,-22.9575,14.5053,20.0,73,25,5.14,NA,1612366382
Quimperlé,47.8667,-3.55,12.78,76,0,6.69,FR,1612366467
Boquira,-12.8231,-42.7306,33.75,36,70,0.48,BR,1612366467
Rio Grande,-32.035,-52.0986,27.0,89,75,2.06,BR,1612366467
Exu,-7.5119,-39.7242,32.0,45,40,3.6,BR,1612366467
Talcahuano,-36.7167,-73.1167,20.0,73,20,1.54,CL,1612366467
Hay River,60.8156,-115.7999,-26.0,70,100,3.09,CA,1612366467
The Valley,18.217,-63.0578,29.0,69,20,5.66,AI,1612366467
Karasburg,-28.0167,18.75,34.02,12,0,5.1,NA,1612366467
Mayumba,-3.432,10.6554,28.03,78,73,4.6,GA,1612366467
Deputatsky,69.3,139.9,-31.53,88,71,0.61,RU,1612366468
Eureka,40.8021,-124.1637,8.89,94,100,2.68,US,1612366468
Pershotravneve,51.3929,28.8684,1.72,97,100,3.74,UA,1612366468
Baghdad,33.3406,44.4009,17.0,45,75,2.06,IQ,1612366226
Innisfail,-17.5333,146.0333,24.22,82,77,1.65,AU,1612366456
Maceió,-9.6658,-35.7353,31.0,58,75,6.69,BR,1612366425
Marawi,7.9986,124.2928,26.11,86,98,2.68,PH,1612366468
Nishihara,26.1842,127.7558,15.0,54,20,2.57,JP,1612366468
Sokoto,13.0609,5.239,34.76,9,3,5.78,NG,1612366468
Petropavlovsk-Kamchatskiy,53.0452,158.6483,-7.0,63,75,6.0,RU,1612366265
Kieta,-6.2167,155.6333,26.66,82,100,5.13,PG,1612366469
Khandagayty,50.7333,92.05,-21.47,86,100,0.69,RU,1612366469
Palmer,42.1584,-72.3287,0.0,69,75,5.66,US,1612366461
Hofn,64.2539,-15.2082,1.0,64,75,5.14,IS,1612366469
Anadyr,64.75,177.4833,-13.0,78,40,14.0,RU,1612366469
Boa Vista,2.8197,-60.6733,27.0,74,75,4.63,BR,1612366469
Coari,-4.085,-63.1414,31.29,63,89,1.28,BR,1612366469
Abalak,58.1286,68.5944,-10.7,96,66,3.91,RU,1612366469
Manzanillo,20.3433,-77.1167,22.92,49,0,3.67,CU,1612366469
Engel-Yurt,43.3289,46.3603,1.0,93,40,2.0,RU,1612366469
Skotterud,59.9828,12.1283,-8.89,79,2,2.57,NO,1612366469
Along,28.1667,94.7667,12.34,56,0,0.96,IN,1612366469
Gari,59.4307,62.3497,-13.45,94,0,3.52,RU,1612366470
Sioux Lookout,50.1001,-91.917,-6.0,86,90,4.63,CA,1612366470
Pahrump,36.2083,-115.9839,12.22,48,44,3.13,US,1612366470
Port Hardy,50.6996,-127.4199,5.0,100,75,2.57,CA,1612366203
Maragogi,-9.0122,-35.2225,29.24,61,67,5.3,BR,1612366422
Bodaybo,57.8506,114.1933,-28.7,79,100,0.82,RU,1612366470
Kaélé,10.1092,14.4508,33.0,11,0,5.26,CM,1612366470
Iqaluit,63.7506,-68.5145,-22.78,70,90,0.67,CA,1612366470
Batagay-Alyta,67.8006,130.4114,-41.16,78,13,0.74,RU,1612366470
Porto Walter,-8.2686,-72.7439,30.14,60,99,1.29,BR,1612366471
Price,39.5994,-110.8107,-3.0,86,40,1.54,US,1612366471
San Cristobal,7.7669,-72.225,29.0,54,20,2.06,VE,1612366471
Hvolsvollur,63.7533,-20.2243,2.0,87,40,13.38,IS,1612366471
Paita,-5.0892,-81.1144,27.0,54,0,9.26,PE,1612366471
Narón,43.5167,-8.1528,13.89,71,20,6.69,ES,1612366471
Tshikapa,-6.4167,20.8,25.98,84,79,2.65,CD,1612366471
Ranong,9.9658,98.6348,24.16,85,18,1.71,TH,1612366471
Namwala,-15.7504,26.4384,22.79,92,100,1.53,ZM,1612366472
Adelaide,-34.9333,138.6,22.78,56,0,4.12,AU,1612366208
Coyhaique,-45.5752,-72.0662,20.0,56,0,2.06,CL,1612366472
Dubai,25.2582,55.3047,22.0,68,0,4.12,AE,1612366318
Mount Isa,-20.7333,139.5,28.0,61,50,4.12,AU,1612366472
Makassar,-5.14,119.4221,24.0,100,75,1.54,ID,1612366264
Rørvik,64.8621,11.2373,-9.0,67,0,2.57,NO,1612366472
Sarakhs,36.5449,61.1577,13.0,50,0,4.12,IR,1612366472
Chabahar,25.2919,60.643,21.51,72,0,3.32,IR,1612366472
Maumere,-8.6199,122.2111,25.39,88,100,3.94,ID,1612366472
Lethem,3.3803,-59.7968,33.2,46,66,4.58,GY,1612366473
Dingle,10.9995,122.6711,23.64,91,94,3.69,PH,1612366473
Ambon City,-3.6954,128.1814,27.0,78,40,1.54,ID,1612366473
Zheleznodorozhnyy,55.7503,38.0042,-4.44,93,75,4.0,RU,1612366473
Kumla,59.1277,15.1434,-7.0,73,30,4.63,SE,1612366473
Derzhavīnsk,51.1,66.3167,-3.6,97,100,7.12,KZ,1612366473
Masunga,-20.6246,27.4488,23.0,88,75,3.09,BW,1612366473
Bubaque,11.2833,-15.8333,26.09,57,25,4.3,GW,1612366473
Kathmandu,27.7167,85.3167,12.0,66,20,1.03,NP,1612366473
Zimmi,7.3153,-11.3061,33.21,43,32,3.33,SL,1612366473
Caxito,-8.5785,13.6643,31.0,62,40,5.14,AO,1612366473
Denzlingen,48.0667,7.8833,11.67,70,100,2.24,DE,1612366474
Naviraí,-23.065,-54.1906,31.63,61,26,2.08,BR,1612366474
Zabul Province,32.25,67.25,3.18,64,0,2.21,AF,1612366474
Mishima,35.1167,138.9167,1.67,68,0,0.45,JP,1612366474
Bandarbeyla,9.4942,50.8122,23.54,65,64,9.48,SO,1612366474
Vestmannaeyjar,63.4427,-20.2734,2.0,87,40,13.38,IS,1612366474
Eastlake,41.6539,-81.4504,-1.11,80,90,5.66,US,1612366474
Natal,-5.795,-35.2094,31.0,58,40,8.75,BR,1612366474
High Rock,26.6208,-78.2833,15.0,58,0,6.69,BS,1612366474
Havøysund,70.9963,24.6622,-1.0,93,90,7.2,NO,1612366474
Quepos,9.4236,-84.1652,24.0,64,20,9.26,CR,1612366475
Port Blair,11.6667,92.75,25.77,78,13,5.02,IN,1612366475
Itaquitinga,-7.6678,-35.1017,31.0,65,40,3.09,BR,1612366475
Shache,38.4167,77.2406,-0.3,77,7,1.58,CN,1612366475
Antakya,36.2066,36.1572,16.0,63,75,5.14,TR,1612366312
Magdalena,14.1999,121.429,27.0,65,20,3.09,PH,1612366475
Sangar,63.9242,127.4739,-39.94,78,100,3.55,RU,1612366475
Jhol,25.9551,68.8882,21.0,49,0,2.06,PK,1612366476
Zhengjiatun,43.5064,123.5064,-22.06,83,0,3.9,CN,1612366476
Ajdabiya,30.7554,20.2263,17.11,69,4,7.49,LY,1612366476
Krasnosel'kup,65.7,82.4667,-17.53,94,87,1.49,RU,1612366476
Alyangula,-13.8483,136.4192,27.0,94,99,1.03,AU,1612366476
Biharamulo,-2.6319,31.3089,20.07,85,79,1.19,TZ,1612366476
Consdorf,49.7731,6.3383,10.56,81,75,8.75,LU,1612366476
Shelburne,44.0787,-80.2041,-4.44,86,2,7.55,CA,1612366476
Kabompo,-13.5927,24.2008,22.14,88,100,2.15,ZM,1612366477
Sisian,39.5256,46.0251,4.0,70,40,2.06,AM,1612366477
Skibbereen,51.55,-9.2667,8.0,81,75,7.2,IE,1612366477
Río Gallegos,-51.6226,-69.2181,19.0,45,75,11.83,AR,1612366477
Rawson,-43.3002,-65.1023,31.29,16,35,2.73,AR,1612366477
Arona,28.0996,-16.681,20.56,64,75,2.57,ES,1612366477
Boyolangu,-8.1181,111.8935,24.46,89,100,1.88,ID,1612366477
Sambava,-14.2667,50.1667,27.93,77,99,4.87,MG,1612366478
Paracuru,-3.41,-39.0306,28.33,67,78,11.18,BR,1612366195
Panabá,21.2833,-88.2667,21.15,55,14,1.56,MX,1612366478
Barra de Tecoanapa,16.5167,-98.75,27.33,61,10,1.12,MX,1612366478
Mulchén,-37.7167,-72.2333,27.0,34,0,3.09,CL,1612366479
Payson,40.0444,-111.7321,8.0,71,75,6.69,US,1612366479
Muros,42.7762,-9.0603,14.44,68,100,11.18,ES,1612366479
Jequié,-13.8575,-40.0836,29.68,63,82,1.98,BR,1612366479
Malanje,-9.5402,16.341,19.17,94,100,1.23,AO,1612366479
Båtsfjord,70.6345,29.7185,-2.0,80,75,8.23,NO,1612366479
La Solana,38.9442,-3.2381,15.0,67,75,2.57,ES,1612366480
Otukpo,7.1913,8.1329,38.49,10,0,3.24,NG,1612366480
Smirnykh,49.75,142.8333,-32.13,80,49,2.15,RU,1612366480
Soligalich,59.0778,42.2864,-7.45,96,100,4.14,RU,1612366480
Blahodatne,50.6637,24.2492,1.74,97,98,3.55,UA,1612366480
Emba,48.8264,58.1442,-2.7,95,100,3.92,KZ,1612366480
Bereda,43.2686,-7.5406,12.22,69,97,4.47,ES,1612366480
Pulandian,39.3953,121.9669,-4.0,63,0,1.0,CN,1612366480
Bien Hoa,10.95,106.8167,25.0,78,20,0.51,VN,1612366213
Tonshayevo,57.736,47.0127,-9.8,96,99,3.43,RU,1612366481
Koprivnica,46.1628,16.8275,11.67,67,97,2.68,HR,1612366481
Puqi,29.7167,113.8833,13.14,81,100,0.65,CN,1612366481
Mossamedes,-15.1961,12.1522,25.0,57,0,6.17,AO,1612366481
Alim,9.5649,122.4876,25.32,78,100,2.87,PH,1612366481
Gonder,12.6,37.4667,19.53,25,72,1.07,ET,1612366481
Waipawa,-41.4122,175.5153,16.11,88,90,4.63,NZ,1612366481
Ponérihouen,-21.0833,165.4,23.97,86,33,4.04,NC,1612366481
Abnūb,27.2696,31.1511,21.0,49,0,7.72,EG,1612366481
Kungurtug,50.5994,97.5228,-14.67,84,90,0.76,RU,1612366482
Marsá Maţrūḩ,31.3525,27.2453,18.0,77,40,7.2,EG,1612366482
San Rafael,-34.6177,-68.3301,24.29,28,0,0.61,AR,1612366289
Tromsø,69.6496,18.957,-5.0,93,90,2.06,NO,1612366482
Omutninsk,58.67,52.1932,-13.04,95,85,1.87,RU,1612366482
Cham,47.1821,8.4636,9.0,87,90,1.03,CH,1612366482
Altamira,-3.2033,-52.2064,32.0,66,75,3.6,BR,1612366482
Labuhan,-6.8844,112.2051,26.16,85,100,4.7,ID,1612366482
Muravlenko,63.7898,74.523,-20.02,93,32,3.76,RU,1612366482
Opuwo,-18.0607,13.84,31.97,18,100,5.65,NA,1612366482
Jacareacanga,-6.2222,-57.7528,24.0,94,90,1.03,BR,1612366483
Tagusao,9.1924,117.8141,25.56,83,100,2.18,PH,1612366483
Sinjār,36.3209,41.8754,11.44,55,97,0.88,IQ,1612366462
That Phanom,16.9364,104.7104,18.11,71,0,3.49,TH,1612366483
Christchurch,-43.5333,172.6333,13.33,87,90,5.66,NZ,1612366398
Muswellbrook,-32.2667,150.9,15.0,94,6,0.36,AU,1612366483
Flin Flon,54.7682,-101.865,-9.0,92,90,4.63,CA,1612366203
Maputo,-25.9653,32.5892,27.0,83,75,2.06,MZ,1612366483
Korla,41.7597,86.1469,-2.62,83,0,0.9,CN,1612366483
Naze,28.3667,129.4833,10.78,69,0,1.59,JP,1612366484
Gamba,-2.65,10.0,28.22,76,77,4.3,GA,1612366484
Itacaré,-14.2775,-38.9967,29.0,74,75,3.6,BR,1612366484
Nome,64.5011,-165.4064,-16.0,55,90,5.66,US,1612366294
Vangaindrano,-23.35,47.6,25.32,74,32,2.02,MG,1612366484
Santa Maria,-29.6842,-53.8069,24.0,100,90,1.54,BR,1612366234
Galesong,-5.3166,119.3661,24.0,100,75,1.54,ID,1612366484
Namatanai,-3.6667,152.4333,26.32,83,100,3.22,PG,1612366484
Yulara,-25.2406,130.9889,32.0,12,90,4.63,AU,1612366485
Khromtau,50.2503,58.4347,-3.1,98,100,4.21,KZ,1612366485
Mikhaylovka,50.06,43.2379,3.89,95,94,1.51,RU,1612366485
Ukiah,39.1502,-123.2078,3.33,93,90,1.54,US,1612366375
Port Lincoln,-34.7333,135.8667,18.31,69,100,2.12,AU,1612366486
Agadez,19.75,10.25,25.59,17,0,5.01,NE,1612366486
Aksu,41.1231,80.2644,-1.59,78,0,2.16,CN,1612366486
Tonota,-21.4833,27.4833,23.0,88,75,3.09,BW,1612366486
Ballina,-28.8667,153.5667,19.0,94,4,2.06,AU,1612366486
Thap Khlo,16.16,100.5966,29.44,46,30,3.75,TH,1612366486
Acarí,-15.4311,-74.6158,27.91,45,87,4.39,PE,1612366486
Alta Floresta,-9.8756,-56.0861,29.0,79,75,1.54,BR,1612366486
Nuuk,64.1835,-51.7216,-14.0,78,20,4.12,GL,1612366486
Carutapera,-1.195,-46.02,32.17,52,63,4.68,BR,1612366487
Sakaiminato,35.55,133.2333,3.0,65,75,3.6,JP,1612366487
Urbana,40.1106,-88.2073,-4.44,93,1,2.06,US,1612366487
Athabasca,54.7169,-113.2854,-19.0,78,99,3.6,CA,1612366205
Dhidhdhoo,6.8833,73.1,27.97,68,7,3.65,MV,1612366487
Sinop Province,41.7711,34.8709,10.17,58,100,1.29,TR,1612366472
Dvinskoy,62.1535,45.1175,-12.82,95,100,2.15,RU,1612366487
Domoni,-12.2569,44.5319,28.4,71,76,2.45,KM,1612366488
Bloemfontein,-29.1211,26.214,18.0,100,90,3.6,ZA,1612366488
Cockburn Town,21.4612,-71.1419,22.6,62,18,3.56,TC,1612366488
Duderstadt,51.5131,10.2595,8.33,98,100,0.45,DE,1612366488
Pingliang,35.5392,106.6861,-0.5,71,100,0.83,CN,1612366488
Beira,-19.8436,34.8389,31.0,74,40,5.66,MZ,1612366488
Itarema,-2.9248,-39.9167,30.52,63,20,8.1,BR,1612366488
Vieste,41.8825,16.175,17.0,63,20,5.66,IT,1612366488
Mareeba,-17.0,145.4333,24.0,94,40,0.77,AU,1612366488
Keti Bandar,24.1447,67.4497,21.01,84,0,5.38,PK,1612366488
Baltoji Vokė,54.6,25.2,-1.0,93,90,3.09,LT,1612366489
Kenai,60.5544,-151.2583,-10.56,85,90,2.06,US,1612366266
Badarpur,24.9,92.6,16.77,57,0,0.89,IN,1612366489
Rosita,13.9268,-84.4032,24.41,57,45,3.64,NI,1612366489
Batagay,67.6333,134.6333,-43.85,73,0,0.36,RU,1612366489
Camacha,33.0833,-16.3333,18.0,72,75,6.17,PT,1612366489
Hirara,24.8,125.2833,18.73,65,29,6.27,JP,1612366489
Namanyere,-7.5167,31.05,19.46,90,97,0.82,TZ,1612366337
Kloulklubed,7.0419,134.2556,27.0,83,75,3.09,PW,1612366490
Melton,-37.6833,144.5833,13.89,81,2,0.27,AU,1612366262
